City,Cloudiness,Country,Date,Humidity,Lat,Lng,Max Temp,Windspeed
colares,20,3600,1620053203,55,38.7992,-9.4469,73,10.36
barrow,90,-28800,1620053203,86,71.2906,-156.7887,15.8,3.27
avarua,90,-36000,1620053204,73,-21.2078,-159.775,75.2,8.05
hasaki,20,32400,1620053204,38,35.7333,140.8333,59,10.36
kunming,0,28800,1620053204,52,25.0389,102.7183,66.2,13.42
lebu,97,-14400,1620053205,77,-37.6167,-73.65,54.41,8.43
cape town,75,7200,1620052986,29,-33.9258,18.4232,78.8,14.97
lagoa,100,0,1620053206,78,39.05,-27.9833,62.83,9.8
camacha,40,3600,1620053206,56,33.0833,-16.3333,68,11.5
hilo,1,-36000,1620053206,78,19.7297,-155.09,71.6,5.75
hengshui,51,28800,1620053207,79,37.7322,115.7011,56.79,7.47
ushuaia,75,-10800,1620053149,87,-54.8,-68.3,35.6,26.46
nikolskoye,,,,,,,,
tuatapere,88,43200,1620053208,72,-46.1333,167.6833,53.01,10
hermanus,83,7200,1620053208,38,-34.4187,19.2345,80.01,2.01
geraldton,100,28800,1620053209,82,-28.7667,114.6,64.4,6.91
bonavista,100,-9000,1620053209,62,48.6499,-53.1147,50,8.05
koboko,95,10800,1620053210,87,3.4136,30.9599,66.2,1.79
namwala,100,7200,1620053210,65,-15.7504,26.4384,67.44,5.39
yellowknife,20,-21600,1620052998,45,62.456,-114.3525,21.99,5.75
khatanga,100,25200,1620053211,85,71.9667,102.5,25.77,13.04
rio grande,20,-10800,1620052948,65,-32.035,-52.0986,77,3.44
katsuura,40,32400,1620053211,72,35.1333,140.3,62.01,4.61
kodiak,90,-28800,1620053212,87,57.79,-152.4072,39.2,8.05
saskylakh,100,32400,1620053212,95,71.9167,114.0833,27.55,7
tuktoyaktuk,75,-21600,1620053213,85,69.4541,-133.0374,10.4,5.26
umzimvubu,,,,,,,,
lindi,6,10800,1620053213,91,-10,39.7167,75.47,5.48
manicore,75,-14400,1620053214,79,-5.8092,-61.3003,84.2,2.3
fairbanks,1,-28800,1620053133,48,64.8378,-147.7164,41,4.7
ostrovnoy,10,10800,1620053215,83,68.0531,39.5131,30.34,10.54
chabahar,18,16200,1620053215,78,25.2919,60.643,83.01,7.36
thompson,75,-18000,1620053215,80,55.7435,-97.8558,28.4,4.61
mullingar,40,3600,1620053216,71,53.5333,-7.35,54,11.99
arkhipo-osipovka,91,10800,1620053216,74,44.37,38.52,63.66,4.7
hithadhoo,100,18000,1620053217,71,-0.6,73.0833,83.8,10.4
rikitea,80,-32400,1620053217,80,-23.1203,-134.9692,78.85,13.44
mar del plata,100,-10800,1620053218,100,-38.0023,-57.5575,61,9.57
castro,0,-10800,1620053218,47,-24.7911,-50.0119,74.98,0.81
aklavik,97,-21600,1620053219,86,68.2191,-135.0107,21.2,9.22
cidreira,0,-10800,1620053219,54,-30.1811,-50.2056,77.18,5.26
kapaa,75,-36000,1620053219,78,22.0752,-159.319,73.4,13.8
esperance,67,28800,1620053220,82,-33.8667,121.9,55.4,9.22
ayagoz,13,21600,1620053220,30,47.9714,80.4392,51.6,10.04
kavieng,64,36000,1620053221,75,-2.5744,150.7967,82.31,4.59
coihaique,20,-14400,1620053221,75,-45.5752,-72.0662,42.8,5.75
luderitz,0,7200,1620053222,59,-26.6481,15.1594,69.96,4.63
jamestown,90,-14400,1620053222,72,42.097,-79.2353,60.01,13.8
albany,100,-14400,1620053193,61,42.6001,-73.9662,60.01,3.6
chuy,24,-10800,1620053223,50,-33.6971,-53.4616,76.68,10.07
busselton,74,28800,1620053224,81,-33.65,115.3333,60.01,3
kavaratti,99,19800,1620053224,69,10.5669,72.642,86,4.88
hobart,90,36000,1620053229,81,-42.8794,147.3294,44.6,10.36
butaritari,77,43200,1620053230,75,3.0707,172.7902,83.16,13.85
tomatlan,2,-18000,1620053230,31,19.9333,-105.25,79.61,0.4
taolanaro,,,,,,,,
severo-kurilsk,100,39600,1620053231,95,50.6789,156.125,34.79,16.98
bredasdorp,62,7200,1620053231,17,-34.5322,20.0403,86,10.36
puerto suarez,11,-14400,1620053232,74,-18.95,-57.8,87.8,6.91
saint-pierre,0,14400,1620053232,78,-21.3393,55.4781,78.8,2.3
raga,48,7200,1620053233,22,8.4596,25.678,97.56,4.54
vao,98,39600,1620053233,80,-22.6667,167.4833,73.65,24.07
kahului,1,-36000,1620053234,78,20.8947,-156.47,71.6,4.61
airai,,,,,,,,
dikson,100,25200,1620053234,89,73.5069,80.5464,27.91,11.83
bluff,87,43200,1620053235,72,-46.6,168.3333,53.01,10
beloha,13,10800,1620053235,66,-25.1667,45.05,67.05,9.17
punta arenas,40,-10800,1620053236,65,-53.15,-70.9167,37.4,9.22
mangrol,0,19800,1620053230,69,21.1167,70.1167,83.84,13.98
mehamn,40,7200,1620053236,64,71.0357,27.8492,35.6,4.61
ocean city,75,-14400,1620053237,60,39.2776,-74.5746,71.6,6.91
buraydah,0,10800,1620053237,16,26.326,43.975,91.4,17.27
porto seguro,75,-10800,1620053238,69,-16.4497,-39.0647,78.8,4.61
peniche,1,3600,1620053238,61,39.3558,-9.3811,68,10
comodoro rivadavia,75,-10800,1620053144,81,-45.8667,-67.5,42.8,14.97
guerrero negro,100,-21600,1620053173,72,27.9769,-114.0611,60.19,15.61
akureyri,75,0,1620053239,56,65.6835,-18.0878,37.4,6.91
mataura,,,,,,,,
cockburn town,46,-14400,1620053110,69,21.4612,-71.1419,79.34,18.1
luau,61,3600,1620053240,85,-10.7073,22.2247,70.52,7.34
saldanha,100,7200,1620053240,15,-33.0117,17.9442,86,13.8
dudinka,100,25200,1620053241,94,69.4058,86.1778,33.69,14.76
college,75,-28800,1620053241,42,64.8569,-147.8028,41,10.36
new norfolk,10,36000,1620053242,76,-42.7826,147.0587,39.99,2.3
samarai,37,36000,1620053242,82,-10.6167,150.6667,79.9,10.67
kracheh,,,,,,,,
yulara,99,34200,1620053243,40,-25.2406,130.9889,69.8,12.66
sao filipe,10,-3600,1620053243,68,14.8961,-24.4956,71.46,8.93
east london,0,7200,1620053244,60,-33.0153,27.9116,73.4,13.8
carlyle,98,-18000,1620053244,94,38.6103,-89.3726,66,7.67
port blair,55,19800,1620053245,76,11.6667,92.75,83.89,8.48
tynda,100,32400,1620053245,89,55.1667,124.7167,35.98,8.43
le port,0,14400,1620053246,83,-20.9373,55.2919,78.8,9.22
jackson,1,-25200,1620053246,75,42.4165,-122.8345,48.99,3.44
isla mujeres,40,-18000,1620053247,74,21.2311,-86.731,84,9.22
beidao,100,28800,1620053247,38,34.5686,105.8933,56.93,10.8
illoqqortoormiut,,,,,,,,
tumannyy,,,,,,,,
sirjan,100,16200,1620053248,47,29.452,55.6814,59.79,15.77
tiksi,100,32400,1620053249,96,71.6872,128.8694,27.19,5.26
bilma,3,3600,1620053249,3,18.6853,12.9164,106,6.91
nanortalik,100,-7200,1620053250,58,60.1432,-45.2371,42.8,30.8
suntar,31,32400,1620053250,96,62.1444,117.6319,30.97,3.36
pimentel,0,-18000,1620053251,61,-6.8367,-79.9342,77,4.61
ahipara,2,43200,1620053251,85,-35.1667,173.1667,52.5,2.66
roseburg,1,-25200,1620053251,87,43.2165,-123.3417,46.99,0.94
puerto carreno,100,-18000,1620053000,82,6.189,-67.4859,77.04,0.69
grand river south east,,,,,,,,
portland,75,-25200,1620053252,71,45.5234,-122.6762,50,4.61
rungata,,,,,,,,
longyearbyen,0,7200,1620053258,68,78.2186,15.6401,23,4.61
saint-leu,0,14400,1620053258,78,-21.15,55.2833,78.8,2.3
cabo san lucas,1,-21600,1620053030,17,22.8909,-109.9124,77,6.91
ponta do sol,40,3600,1620053259,60,32.6667,-17.1,69.8,16.11
wenling,100,28800,1620053260,73,28.3669,121.36,72,11.41
acapulco,20,-18000,1620053260,69,16.8634,-99.8901,77,4.61
hami,85,28800,1620053261,7,42.8,93.45,59.9,3.8
tual,77,32400,1620053261,77,-5.6667,132.75,82.72,17.45
maputo,20,7200,1620053261,64,-25.9653,32.5892,73.4,11.5
souillac,40,14400,1620053262,94,-20.5167,57.5167,78.8,6.91
camargo,93,-21600,1620053262,25,27.6667,-105.1667,70.3,11.43
koumac,1,39600,1620053263,84,-20.5667,164.2833,73.69,3.8
rakiv lis,99,10800,1620053263,56,51.6217,24.9243,47.14,18.68
opuwo,0,7200,1620053264,31,-18.0607,13.84,83.12,12.03
saluzzo,45,7200,1620053264,39,44.6464,7.4862,64.4,4.61
le vauclin,75,-14400,1620053264,83,14.5452,-60.8388,80.01,14.97
jiddah,,,,,,,,
kupang,13,28800,1620053265,75,-10.1667,123.5833,78.35,11.16
turukhansk,100,25200,1620053265,98,65.8167,87.9833,32.22,11.54
qaanaaq,33,-10800,1620053266,71,77.484,-69.3632,29.8,2.28
victor harbor,60,34200,1620053266,66,-35.5667,138.6167,57.99,5.01
la ronge,36,-21600,1620053267,68,55.1001,-105.2842,26.6,5.75
sidmouth,75,3600,1620053267,76,50.6909,-3.2397,52,27.63
hobyo,100,10800,1620053268,69,5.3505,48.5268,85.82,9.93
avera,,,,,,,,
laguna,1,-25200,1620053268,39,38.421,-121.4238,64.99,17.27
talitsa,0,18000,1620053269,25,56.8804,60.0213,59,6.71
amderma,,,,,,,,
hofn,40,0,1620053270,38,64.2539,-15.2082,41,21.85
hunza,,,,,,,,
belushya guba,,,,,,,,
arraial do cabo,40,-10800,1620053270,73,-22.9661,-42.0278,78.8,4.61
riachao,14,-10800,1620053271,52,-7.3619,-46.6172,84.43,9.33
clarence town,100,36000,1620053271,100,-32.5833,151.7833,61,2.04
tsihombe,,,,,,,,
oltu,25,10800,1620053272,30,40.5498,42.0013,70.27,5.1
abu kamal,,,,,,,,
gravdal,40,7200,1620053273,56,68.1214,13.5031,37.4,8.05
port elizabeth,0,7200,1620053273,56,-33.918,25.5701,72.55,11.92
san patricio,1,-18000,1620053274,83,28.017,-97.5169,82.4,11.5
tasiilaq,0,-7200,1620053274,55,65.6145,-37.6368,33.8,9.22
svetlogorsk,99,10800,1620053275,73,52.6333,29.7333,44.44,18.03
havre,0,7200,1620053275,58,49.5833,0.3333,60.8,8.05
smiltene,100,10800,1620053276,93,57.4244,25.9016,37,4
georgetown,40,28800,1620053112,94,5.4112,100.3354,82.4,2.3
bethel,20,-14400,1620053276,48,41.3712,-73.414,64.4,6.91
puente nacional,100,-18000,1620053277,98,5.8774,-73.6781,62.01,1.14
vaini,75,46800,1620053277,78,-21.2,-175.2,73.4,11.5
sulurpeta,,,,,,,,
oranjemund,7,7200,1620053278,67,-28.55,16.4333,67.77,4.9
puerto ayora,0,-21600,1620053279,74,-0.7393,-90.3518,80.6,13.8
puerto del rosario,20,3600,1620053280,56,28.5004,-13.8627,71.6,18.41
provideniya,99,43200,1620053280,75,64.3833,-173.3,27.5,13.56
lata,34,3600,1620053281,40,40.1629,-8.3327,75,9.84
bardiyah,100,7200,1620053281,24,31.7561,25.0865,88.99,6.93
iqaluit,40,-14400,1620053282,69,63.7506,-68.5145,33.8,11.5
clyde river,20,-14400,1620053282,86,70.4692,-68.5914,26.6,17.27
anadyr,0,43200,1620053283,92,64.75,177.4833,10.4,8.95
gat,31,10800,1620053288,29,31.61,34.7642,84,9.4
bambous virieux,40,14400,1620053289,94,-20.3428,57.7575,79,6.91
upernavik,85,-7200,1620053289,68,72.7868,-56.1549,31.73,8.86
taicheng,90,28800,1620053289,41,38.731,113.228,51.85,5.26
port alfred,0,7200,1620053290,61,-33.5906,26.891,73.27,17.96
mareeba,90,36000,1620053290,83,-17,145.4333,73.4,4.61
yeppoon,40,36000,1620053291,83,-23.1333,150.7333,68,4.61
ahuimanu,40,-36000,1620053291,73,21.4447,-157.8378,73.4,8.05
marsh harbour,100,-14400,1620053292,73,26.5412,-77.0636,79.03,14.45
jorpeland,40,7200,1620053292,61,59.0225,6.0408,46.4,9.22
fortuna,90,-25200,1620053241,100,40.5982,-124.1573,51.01,5.75
santarem,40,-10800,1620053293,78,-2.4431,-54.7083,80.6,8.05
kasongo-lunda,100,3600,1620053293,97,-6.4667,16.8167,70.9,1.7
iwanai,96,32400,1620053294,93,42.9744,140.5089,40.57,5.03
kutum,5,7200,1620053294,8,14.2,24.6667,93.04,8.79
selje,100,7200,1620053294,65,62.0459,5.351,45,12.91
torbay,90,-9000,1620053295,81,47.6666,-52.7314,45,24.16
madison heights,90,-14400,1620053110,100,42.4859,-83.1052,59,4.61
ongandjera,9,7200,1620053296,32,-17.8833,15.0667,83.82,9.26
port hedland,59,28800,1620053296,88,-20.3167,118.5667,75.2,5.75
bagdarin,100,28800,1620053296,59,54.4333,113.6,36.93,9.89
srednekolymsk,100,39600,1620053297,96,67.45,153.6833,14.5,2.86
can tho,20,25200,1620053258,89,10.0333,105.7833,82.4,4.61
dingle,78,28800,1620053298,83,10.9995,122.6711,79.18,8.21
sorland,20,7200,1620053298,52,67.667,12.6934,39.2,9.22
korgen,20,7200,1620053299,33,66.0771,13.8153,41,10.36
hirtshals,75,7200,1620053299,66,57.5881,9.9592,51.01,11.5
iquique,0,-14400,1620053300,60,-20.2208,-70.1431,68,11.5
altay,0,28800,1620053300,30,47.8667,88.1167,45.52,7.56
pandan niog,6,28800,1620053301,73,6.2282,120.5631,84.13,5.75
medea,40,3600,1620053301,68,36.2642,2.7539,69.8,23.02
rio gallegos,75,-10800,1620053302,80,-51.6226,-69.2181,33.8,14.97
osoyoos,100,-25200,1620053302,76,49.0331,-119.4524,46.4,0.54
arua,90,10800,1620053303,80,3.0201,30.9111,69.46,3.83
artyk,,,,,,,,
port hardy,90,-25200,1620053303,93,50.6996,-127.4199,46.4,9.22
bulolo,58,36000,1620053304,96,-7.2,146.65,69.51,0.92
kaiyuan,0,28800,1620053304,71,23.6977,103.3037,69.37,6.33
sao joao da barra,40,-10800,1620053305,61,-21.6403,-41.0511,80.6,2.3
atuona,99,-34200,1620053305,73,-9.8,-139.0333,80.53,14.56
champasak,74,25200,1620053305,83,14.75,106,77.23,2.19
edelira,0,-14400,1620053306,36,-26.75,-55.2667,85.01,8.63
katiola,40,0,1620053306,65,8.1333,-5.1,84.2,4.61
tilichiki,60,43200,1620053307,97,60.4667,166.1,3.79,8.39
bianzhuang,100,28800,1620053307,98,34.8486,118.0447,62.49,6.4
lorengau,88,36000,1620053307,75,-2.0226,147.2712,80.96,1.07
srikakulam,55,19800,1620053308,68,18.3,83.9,80.87,6.85
gimli,100,-18000,1620053308,60,50.6336,-96.9907,37.4,11.5
attawapiskat,,,,,,,,
vila franca do campo,20,0,1620053309,77,37.7167,-25.4333,64.4,6.91
vestmannaeyjar,0,0,1620053310,36,63.4427,-20.2734,44.6,12.66
richards bay,11,7200,1620053310,73,-28.783,32.0377,67.82,6.26
namibe,40,3600,1620053316,58,-15.1961,12.1522,86,11.5
coos bay,1,-25200,1620053316,93,43.3665,-124.2179,46.99,9.22
scarborough,100,3600,1620053316,87,54.2797,-0.4044,44.01,7
palabuhanratu,,,,,,,,
hokitika,92,43200,1620053317,77,-42.7167,170.9667,53.24,3.15
satitoa,,,,,,,,
nizhneyansk,,,,,,,,
el dorado,1,-25200,1620053318,25,38.7666,-120.5177,63,11.5
sarakhs,90,16200,1620053318,46,36.5449,61.1577,73.4,6.91
haines junction,100,-25200,1620053056,86,60.7522,-137.5108,24.8,1.14
porangatu,0,-10800,1620053319,47,-13.4408,-49.1486,85.57,2.73
shache,100,28800,1620053320,16,38.4167,77.2406,74.1,6.76
chechat,62,19800,1620053320,22,24.7667,75.8833,89.76,6.46
roma,1,-14400,1620053188,72,43.2128,-75.4557,63,9.22
severnoye,100,25200,1620053321,84,56.3491,78.3619,48.78,9.26
carnot,82,3600,1620053321,68,4.9409,15.8665,82.67,7.45
bairiki,20,43200,1620053321,83,1.3292,172.9752,82.4,6.91
deshnok,,,,,,,,
verkhnyaya inta,100,10800,1620053322,66,65.9811,60.3094,33.46,17.43
ayr,75,3600,1620053323,87,55.4627,-4.6339,39.2,23.02
urengoy,11,18000,1620053323,93,65.9667,78.3667,26.62,8.25
semirom,65,16200,1620053323,43,31.4167,51.5667,50.72,7.58
praya,20,-3600,1620053324,53,14.9215,-23.5087,77,19.57
saint-francois,0,7200,1620053324,39,46.4154,3.9054,64,3.44
barabai,89,28800,1620053325,86,-2.5833,115.3833,77.25,2.33
newcastle,100,36000,1620053278,100,-32.9272,151.7765,64,6.6
bozeman,1,-21600,1620053100,75,45.6796,-111.0386,42.01,2.08
victoria,80,28800,1620053284,91,22.2855,114.1577,78.01,3
fukue,81,32400,1620053326,66,32.6881,128.8419,62.74,13.67
presidencia roque saenz pena,55,-10800,1620053326,65,-26.7852,-60.4388,87.01,5.01
disa,70,19800,1620053327,20,24.25,72.1667,89.71,7.56
san antonio,90,-18000,1620053119,69,29.4241,-98.4936,77,4.61
sibolga,100,25200,1620053328,86,1.7427,98.7792,79.05,3.24
okhotsk,39,36000,1620053328,83,59.3833,143.3,33.91,3.6
tazovskiy,7,18000,1620053328,95,67.4667,78.7,21.27,7.2
kapoeta,100,7200,1620053329,50,4.7717,33.5903,81.39,6.33
kletskaya,100,10800,1620053329,49,49.3145,43.0584,71.37,15.46
mildura,83,36000,1620053220,76,-34.2,142.15,53.6,8.05
carnarvon,90,28800,1620053330,94,-24.8667,113.6333,62.6,12.66
zheshart,100,10800,1620053330,42,62.0731,49.5733,43.12,4.38
kupino,100,25200,1620053331,87,54.3663,77.2981,50.7,17.52
sterling,90,-14400,1620053123,77,39.0062,-77.4286,66.99,3.44
kununurra,28,28800,1620053331,78,-15.7667,128.7333,69.8,3.44
murray bridge,75,34200,1620053332,97,-35.1167,139.2667,53.01,15.48
vaitupu,,,,,,,,
itaituba,40,-10800,1620053333,70,-4.2761,-55.9836,86,3.44
barentsburg,,,,,,,,
storforshei,,,,,,,,
edd,100,10800,1620053334,62,13.9297,41.6925,87.1,4.65
aykhal,100,32400,1620053334,98,66,111.5,30.09,2.93
bathsheba,75,-14400,1620053334,69,13.2167,-59.5167,78.8,20.71
tsiroanomandidy,8,10800,1620053335,78,-18.7667,46.0333,67.35,4.72
tacarigua,100,-14400,1620053335,72,10.0862,-67.9198,32,2.66
atar,0,0,1620053185,9,20.5169,-13.0499,97.38,9.6
flin flon,90,-18000,1620053103,64,54.7682,-101.865,28.4,8.05
saint-vallier,0,7200,1620053336,39,46.6411,4.3711,64,3.44
dolbeau,,,,,,,,
ambilobe,80,10800,1620053337,88,-13.2,49.05,76.91,2.17
asau,51,10800,1620053342,31,46.4333,26.4,60.01,10.38
shubarshi,88,18000,1620053343,31,48.5872,57.1869,69.85,5.75
pisco,74,-18000,1620053343,83,-13.7,-76.2167,68,8.05
jacqueville,40,0,1620053344,79,5.2052,-4.4146,86,13.8
ginir,97,10800,1620053344,81,7.1333,40.7,62.83,2.68
ancud,0,-14400,1620053345,87,-41.8697,-73.8203,52,3.44
muslyumovo,100,10800,1620053345,67,55.3033,53.1947,56.66,8.88
saint-philippe,0,14400,1620053346,78,-21.3585,55.7679,78.8,2.3
flinders,100,36000,1620053346,79,-34.5833,150.8552,63,3
maceio,75,-10800,1620053347,69,-9.6658,-35.7353,82.4,6.91
ngama,87,3600,1620053347,8,11.7833,17.1667,105.75,11.3
vardo,40,7200,1620053348,75,70.3705,31.1107,33.8,10.36
dukat,84,39600,1620053348,99,62.55,155.55,7.83,2.8
tver,82,10800,1620053109,78,56.8619,35.8931,48.83,13.53
leh,6,19800,1620053349,32,34.1667,77.5833,49.15,4.23
broome,100,-14400,1620053349,75,42.2506,-75.833,61,6.78
vesoul,0,7200,1620053181,38,47.5833,5.8333,61,6.91
deputatskiy,98,36000,1620053350,97,69.3,139.9,23.49,3.89
seoni,60,19800,1620053350,35,22.0833,79.5333,81.99,3.67
alugan,96,28800,1620053351,87,12.2188,125.4808,80.13,14.09
santiago de cao,20,-18000,1620053351,78,-7.9589,-79.2392,69.8,6.91
vanavara,100,25200,1620053352,94,60.34,102.2797,33.31,4.45
honiara,96,39600,1620053352,88,-9.4333,159.95,77.25,3.11
koppang,100,7200,1620053353,87,61.5706,11.0555,38.79,2.59
ponta delgada,20,0,1620053353,77,37.7333,-25.6667,64.4,6.91
palmerston,0,34200,1620053102,88,-12.486,130.9833,75.2,3.44
buritizeiro,0,-10800,1620053354,39,-17.3511,-44.9622,83.26,4.85
sentyabrskiy,,,,,,,,
ribeira grande,40,0,1620053354,68,38.5167,-28.7,66.2,6.91
paka,97,28800,1620053355,89,4.6374,103.4368,80.6,1.14
sitka,90,-28800,1620053355,87,57.0531,-135.33,44.6,3.44
pevek,76,43200,1620053356,98,69.7008,170.3133,0.18,7.34
tabiauea,,,,,,,,
lolua,,,,,,,,
palmer,100,-14400,1620053357,42,42.1584,-72.3287,64.99,1.99
batagay-alyta,100,32400,1620053357,95,67.8006,130.4114,28.62,0.74
khandyga,38,32400,1620053358,93,62.6667,135.6,31.78,4
wundanyi,100,10800,1620053358,84,-3.4019,38.364,64.72,9.04
mahebourg,40,14400,1620053358,94,-20.4081,57.7,78.8,6.91
pemberton,90,-25200,1620053360,93,50.3164,-122.8027,39.2,2.93
cassilandia,0,-14400,1620053360,27,-19.1133,-51.7342,87.6,7.31
mayumba,100,3600,1620053361,75,-3.432,10.6554,82.49,9.28
sainte-suzanne,0,14400,1620053361,83,-20.9061,55.6089,78.8,9.22
sekoma,0,7200,1620053362,27,-24.4,23.8833,71.96,8.28
chimore,14,-14400,1620053362,55,-16.9833,-65.1333,84.65,4.59
dianopolis,,,,,,,,
teya,100,25200,1620053363,99,60.3778,92.6267,37.35,3.18
korla,100,28800,1620053363,19,41.7597,86.1469,63.45,11.14
sorvag,,,,,,,,
bandarbeyla,100,10800,1620053364,66,9.4942,50.8122,85.1,7.56
whitehorse,75,-25200,1620053365,69,60.7161,-135.0538,30.99,2.3
kargapolye,,,,,,,,
olean,90,-14400,1620053365,71,42.0776,-78.4297,57.99,5.75
vathi,0,10800,1620053366,30,38.4,23.6,86,3.44
bilibino,38,43200,1620053366,95,68.0546,166.4372,-0.29,4.41
cavadinesti,70,10800,1620053366,53,46.0667,28.0169,59.76,14.65
erdaojiang,38,28800,1620053372,40,41.7764,126.0319,50,8.61
miami,75,-14400,1620053284,65,25.7743,-80.1937,87.01,13.8
kargasok,99,25200,1620053373,86,59.0556,80.8572,43.21,6.55
port lincoln,87,34200,1620053373,59,-34.7333,135.8667,59.23,14.43
bakchar,100,25200,1620053373,98,57.0186,82.0711,47.48,3.2
san cristobal,75,-14400,1620053374,94,7.7669,-72.225,77,3.44
louisbourg,,,,,,,,
burns lake,100,-25200,1620053374,93,54.2331,-125.7533,33.8,3.58
irun,40,7200,1620053375,59,43.339,-1.7894,60.8,5.75
yangjiang,30,28800,1620053375,90,21.85,111.9667,76.33,6.82
coahuayana,1,-18000,1620053376,26,18.7333,-103.6833,69.8,1.99
xining,68,28800,1620053376,56,36.6167,101.7667,40.59,10.8
zhadovka,100,14400,1620053377,61,53.5746,46.9498,65.68,15.99
narsaq,75,-7200,1620053377,26,60.9167,-46.05,44.6,41.43
hambantota,75,19800,1620053378,100,6.1241,81.1185,78.8,5.75
buala,65,39600,1620053378,80,-8.145,159.5921,79.84,0.54
olafsvik,3,0,1620053378,48,64.8945,-23.7142,39.18,7.25
san carlos de bariloche,47,-10800,1620053289,53,-41.1456,-71.3082,46.4,11.5
porto novo,20,3600,1620053379,66,6.4965,2.6036,91.4,17.27
gorom-gorom,12,0,1620053379,11,14.4439,-0.2361,107.35,6.93
caxito,75,3600,1620053380,83,-8.5785,13.6643,78.8,10.36
valparaiso,40,-14400,1620053380,82,-33.0393,-71.6273,57.99,4.61
eureka,6,-25200,1620053305,92,40.8021,-124.1637,50,5.41
lauria,100,7200,1620053381,66,40.0465,15.8358,57.78,4.14
acarau,97,-10800,1620053381,76,-2.8856,-40.12,81.68,9.19
salym,86,18000,1620053382,48,60.0625,71.4789,40.33,4.16
wasilla,1,-28800,1620053382,65,61.5814,-149.4394,37.99,6.91
puerto gaitan,100,-18000,1620053383,90,4.3133,-72.0816,71.69,6.85
vyazemskiy,40,36000,1620053383,62,47.5378,134.7525,40.78,5.1
bengkulu,95,25200,1620053384,87,-3.8004,102.2655,78.22,4.56
husavik,75,0,1620053384,56,66.0449,-17.3389,37.4,6.91
nome,90,-28800,1620053384,70,64.5011,-165.4064,37.4,10.36
lalibela,100,10800,1620053385,89,12.0333,39.0333,55.09,3.78
saint-denis,0,7200,1620053385,33,48.9167,2.3333,63,12.66
visby,0,7200,1620053386,53,57.6409,18.296,52,6.91
buin,75,-14400,1620053386,66,-33.7333,-70.75,63,3.44
udachnyy,100,32400,1620053387,98,66.4167,112.4,29.52,2.64
sardarshahr,39,19800,1620053387,18,28.4333,74.4833,92.37,8.03
mwene-ditu,73,7200,1620053389,82,-7,23.45,75.38,1.32
marzuq,,,,,,,,
rincon,75,-14400,1620053389,65,32.296,-81.2354,82,10.36
khoni,0,14400,1620053390,27,42.3226,42.4206,87.8,3.44
sur,100,14400,1620053390,43,22.5667,59.5289,89.29,12.41
springbok,99,7200,1620053391,21,-29.6643,17.8865,76.05,4.03
lanzhot,71,7200,1620053391,37,48.7244,16.9669,59,10
bonoua,40,0,1620053391,79,5.2741,-3.595,86,13.8
angoram,87,36000,1620053392,96,-4.0625,144.0661,74.32,1.39
sayat,0,18000,1620053392,22,38.7839,63.8803,87.8,11.5
palimbang,51,28800,1620053393,83,6.2106,124.1894,80.28,3.42
leningradskiy,26,43200,1620053393,92,69.3833,178.4167,2.14,6.15
pozo colorado,,,,,,,,
noumea,90,39600,1620053228,94,-22.2763,166.4572,75.99,10.4
ketchikan,90,-28800,1620053394,87,55.3422,-131.6461,42.8,9.22
saint anthony,90,-18000,1620053400,71,45.0205,-93.218,54,11.5
waingapu,26,28800,1620053400,81,-9.6567,120.2641,76.8,8.84
boda,99,3600,1620053400,47,4.3189,17.4695,86.61,1.97
norman wells,20,-21600,1620053401,74,65.282,-126.8329,32,4.61
muravlenko,56,18000,1620053402,65,63.7898,74.523,33.87,7.05
paamiut,100,-7200,1620053403,57,61.994,-49.6678,42.15,12.01
havre-saint-pierre,40,-14400,1620053403,49,50.2334,-63.5986,46.4,21.85
mwanza,40,10800,1620053404,61,-2.5167,32.9,80.6,6.91
saint george,0,-21600,1620053145,46,37.1041,-113.5841,62.01,7.83
salumbar,95,19800,1620053405,17,24.1333,74.05,94.03,4.52
lasa,20,7200,1620053405,17,46.6166,10.7002,69.8,4.61
liverpool,75,3600,1620053230,87,53.4106,-2.9779,50,26.46
kisangani,55,7200,1620053406,56,0.5167,25.2,86.85,3
ermelo,8,7200,1620053407,36,-26.5333,29.9833,60.82,7.49
matadi,98,3600,1620053407,85,-5.8167,13.45,80.28,4.52
kloulklubed,75,32400,1620053407,89,7.0419,134.2556,80.6,10.36
oktyabrskiy,92,18000,1620053408,62,54.4815,53.471,61.72,6.82
bolgatanga,97,0,1620053408,22,10.7856,-0.8514,104.94,2.06
gazanjyk,100,18000,1620053409,18,39.2446,55.5154,77.38,6.17
tigil,1,43200,1620053409,76,57.8,158.6667,28.35,6.67
bonfim,89,-14400,1620053410,66,3.0833,-59.95,83.53,6.31
chagda,,,,,,,,
jiwani,91,18000,1620053410,79,25.05,61.7417,82.9,7.56
vostok,61,36000,1620053411,76,46.4856,135.8833,32.54,1.63
kuliyapitiya,72,19800,1620053411,89,7.4688,80.0401,77.85,1.1
bonanza,61,-21600,1620053412,52,14.0289,-84.591,84.24,4.54
mapiripan,100,-18000,1620053412,98,2.8892,-72.1256,72.32,4.16
turbat,100,18000,1620053413,47,26.0023,63.044,86.41,13.31
darhan,100,28800,1620053413,48,49.4867,105.9228,39.6,4.05
san andres,40,-18000,1620053413,66,12.5847,-81.7006,86,9.22
pangnirtung,20,-14400,1620053414,69,66.1451,-65.7125,33.8,4.61
saleaula,,,,,,,,
karauzyak,,,,,,,,
tucurui,60,-10800,1620053415,62,-3.7661,-49.6725,85.86,3.98
abha,40,10800,1620053415,68,18.2164,42.5053,69.8,11.5
andapa,75,10800,1620053416,98,-14.65,49.65,71.37,1.9
san policarpo,98,28800,1620053416,86,12.1791,125.5072,80.71,14.94
qui nhon,59,25200,1620053417,79,13.7667,109.2333,78.57,4.29
mocambique,,,,,,,,
henties bay,,,,,,,,
kruisfontein,2,7200,1620053418,36,-34.0033,24.7314,76.69,2.64
cherskiy,23,39600,1620053418,93,68.75,161.3,11.1,7.34
talnakh,100,25200,1620053419,77,69.4865,88.3972,28.22,6.87
fernie,41,-21600,1620053419,93,49.5,-115.0687,37.4,5.75
bulgan,78,28800,1620053420,42,48.8125,103.5347,36.28,4.61
taltal,100,-14400,1620053420,57,-25.4,-70.4833,69.85,2.44
zhigansk,100,32400,1620053420,99,66.7697,123.3711,31.93,6.98
plettenberg bay,4,7200,1620053363,48,-34.0527,23.3716,74.26,2.24
mabaruma,93,-14400,1620053421,87,8.2,-59.7833,80.83,3.78
kirakira,64,39600,1620053422,84,-10.4544,161.9205,78.03,2.98
najran,75,10800,1620053423,14,17.4924,44.1277,91.4,6.91
canico,40,3600,1620053423,60,32.6333,-16.85,69.8,16.11
nago,40,32400,1620053424,73,26.5881,127.9761,69.8,9.22
lima,90,-18000,1620053230,88,-12.0432,-77.0282,73,10.36
ixtapa,1,-18000,1620053424,72,20.7,-105.2,66.2,5.75
saurimo,99,3600,1620053430,79,-9.6608,20.3916,71.78,4.79
huarmey,32,-18000,1620053430,78,-10.0681,-78.1522,69.53,6.64
kasempa,80,7200,1620053431,61,-13.4584,25.8338,70.59,5.66
laibin,19,28800,1620053431,88,23.7,109.2667,75.88,8.86
contamana,73,-18000,1620053432,61,-7.3333,-75.0167,85.53,0.89
falealupo,,,,,,,,
khonuu,,,,,,,,
auki,74,39600,1620053433,87,-8.7676,160.7034,77.09,2.66
nkhotakota,53,7200,1620053433,66,-12.9274,34.2961,74.39,13.87
ushumun,100,32400,1620053434,44,52.7833,126.5333,47.97,13.76
amarante do maranhao,50,-10800,1620053434,56,-5.5667,-46.7422,85.62,7.4
ilulissat,1,-7200,1620053435,23,69.2167,-51.1,48.2,20.71
saint-augustin,41,-14400,1620053435,51,51.226,-58.6502,47.03,9.64
chulman,100,32400,1620053435,99,56.8479,124.9104,29.98,2.21
senneterre,75,-14400,1620053436,56,48.3835,-77.2328,37.4,2.3
san miguel,0,-21600,1620053436,89,13.4833,-88.1833,80.6,2.35
cap malheureux,3,14400,1620053437,85,-19.9842,57.6142,79,3
san quintin,98,-25200,1620053437,73,30.4833,-115.95,59.34,6.87
pouebo,32,39600,1620053438,87,-20.4,164.5667,73.56,12.71
chokurdakh,100,39600,1620053438,98,70.6333,147.9167,29.7,7.81
adolfo lopez mateos,26,-21600,1620053439,34,28.4667,-107.3,57.99,1.99
namatanai,73,36000,1620053439,82,-3.6667,152.4333,79.41,3.42
general roca,0,-10800,1620053440,66,-39.0333,-67.5833,51.8,6.91
quelimane,40,7200,1620053440,61,-17.8786,36.8883,77,9.22
mana,97,-10800,1620053440,78,5.6592,-53.7767,82.18,8.86
armacao dos buzios,,,,,,,,
dibulla,85,-18000,1620053441,62,11.2725,-73.3091,85.68,8.59
abalak,78,18000,1620053441,46,58.1286,68.5944,47.3,11.77
muli,91,18000,1620053442,72,2.9167,73.5667,84.6,10.31
haibowan,,,,,,,,
akdepe,0,18000,1620053442,18,42.0551,59.3788,82.4,11.5
prince rupert,90,-25200,1620053443,93,54.3161,-130.3201,44.6,11.5
pacifica,20,-25200,1620053443,76,37.6138,-122.4869,55.99,3.44
muisne,75,-18000,1620053444,100,0.6,-80.0333,75.2,9.22
amga,91,32400,1620053444,98,60.8953,131.9608,35.31,0.76
padang,40,25200,1620053445,89,-0.9492,100.3543,82.4,3.44
mys shmidta,,,,,,,,
gubskaya,97,10800,1620053445,69,44.3164,40.6358,70.81,2.62
roswell,90,-14400,1620053155,94,34.0232,-84.3616,68,9.24
pemangkat,96,25200,1620053446,77,1.1667,108.9667,81.63,5.55
along,95,19800,1620053446,89,28.1667,94.7667,69.53,1.83
griffith,90,-18000,1620053447,94,41.5284,-87.4237,61,4.61
kushmurun,9,21600,1620053447,61,52.4503,64.6311,54.34,11.61
sept-iles,75,-14400,1620053448,60,50.2001,-66.3821,43,16.11
berlevag,40,7200,1620053448,64,70.8578,29.0864,33.8,4.61
stanisic,0,7200,1620053449,44,45.94,19.1653,57.2,11.5
lensk,82,32400,1620053449,95,60.7253,114.9278,31.86,0.16
toliary,,,,,,,,
borogontsy,96,32400,1620053450,99,62.6683,131.1683,34.38,3.4
jaguaquara,95,-10800,1620053450,46,-13.5306,-39.9708,80.51,7.43
temir,34,18000,1620053451,35,49.1414,57.13,69.33,5.35
raudeberg,,,,,,,,
romilly-sur-seine,0,7200,1620053451,39,48.5108,3.7263,60.8,11.5
daytona beach,20,-14400,1620053340,65,29.2108,-81.0228,82,10.36
saint-joseph,0,14400,1620053452,78,-21.3667,55.6167,78.8,2.3
klaksvik,75,3600,1620053452,60,62.2266,-6.589,41,13.8
rabo de peixe,20,0,1620053453,77,37.8,-25.5833,64.4,6.91
barbar,,,,,,,,
san pedro,69,28800,1620053458,70,14.35,121.0167,82.99,3
mayo,40,-14400,1620053393,68,38.8876,-76.5119,66.99,5.75
itaqui,11,-10800,1620053459,42,-29.1253,-56.5531,86.68,17.87
tikapur,100,20700,1620053294,74,28.5,81.1333,84.99,4
concordia,40,-10800,1620053460,78,-31.393,-58.0209,75.2,11.5
belaya gora,100,39600,1620053460,99,68.5333,146.4167,29.84,2.71
kondagaon,49,19800,1620053461,35,19.6,81.6667,82.63,3.83
alotau,,,,,,,,
yangambi,82,7200,1620053461,50,0.8102,24.4336,87.03,0.81
karratha,12,28800,1620053461,67,-20.7377,116.8463,80.33,8.84
pokhara,100,20700,1620053462,84,28.2333,83.9833,66.63,1.39
eslov,91,7200,1620053462,72,55.8393,13.3039,46.99,3
meulaboh,100,25200,1620053463,83,4.1363,96.1285,80.46,3.53
arrecife,40,3600,1620053463,46,28.963,-13.5477,73.4,23.02
ola,6,39600,1620053464,84,59.5833,151.2833,30.34,4.09
blackfoot,96,-21600,1620053464,61,43.1905,-112.345,45,5.01
haapiti,20,-36000,1620053465,78,-17.5667,-149.8667,75.2,3.44
lashio,2,23400,1620053465,80,22.9333,97.75,67.78,2.53
kamenskoye,,,,,,,,
galiwinku,,,,,,,,
jijiga,100,10800,1620053466,70,9.35,42.8,67.95,6.26
santiago del estero,50,-10800,1620053467,51,-27.7951,-64.2615,82.04,15.7
viligili,,,,,,,,
bull savanna,30,-18000,1620053468,59,17.8868,-77.5902,82.35,14.43
merritt,90,-25200,1620053468,62,50.1123,-120.7942,50,14.97
tonj,16,7200,1620053408,32,7.2737,28.6822,94.62,5.53
mahaicony,,,,,,,,
zanjan,40,16200,1620053469,72,36.6736,48.4787,57.2,11.5
douentza,80,0,1620053469,13,14.9951,-2.9517,107.47,7.92
karaton,,,,,,,,
stoyba,,,,,,,,
codrington,100,36000,1620053470,66,-38.2667,141.9667,52.65,18.61
bonthe,100,0,1620053471,61,7.5264,-12.505,88.02,5.73
charters towers,100,36000,1620053471,75,-20.1,146.2667,71.98,5.37
salisbury,75,3600,1620053456,71,51.0693,-1.7957,53.01,28.77
santa cruz,27,-14400,1620053334,65,-17.8,-63.1667,82.4,19.57
bargal,,,,,,,,
alofi,87,-39600,1620053472,88,-19.0595,-169.9187,73.4,5.75
santa rosa,80,28800,1620053473,70,14.3122,121.1114,82.99,3
baykit,100,25200,1620053473,99,61.67,96.37,35.31,3.09
micheweni,100,10800,1620053474,86,-4.9667,39.8333,78.82,13.96
tura,99,19800,1620053474,73,25.5198,90.2201,73.47,3.33
praia,20,-3600,1620053475,53,14.9215,-23.5087,77,19.57
isangel,22,39600,1620053475,81,-19.55,169.2667,76.98,17.81
kardla,0,10800,1620053475,75,58.9978,22.7492,42.8,14.97
skalnyy,,,,,,,,
pemba,40,7200,1620053476,83,-12.974,40.5178,78.8,11.5
marsciano,10,7200,1620053477,53,42.9059,12.3359,71.01,2.3
itarema,,,,,,,,
safaqis,,,,,,,,
shimoda,1,32400,1620053477,56,34.6667,138.95,57,1.99
churapcha,83,32400,1620053478,95,62.0025,132.4325,36.59,3.33
yilan,40,28800,1620053305,88,24.757,121.753,78.01,4.61
gariaband,48,19800,1620053478,43,20.635,82.0614,81.81,12.84
gigmoto,58,28800,1620053479,87,13.7796,124.39,80.24,11.54
samalaeulu,,,,,,,,
sesheke,10,7200,1620053480,32,-17.4759,24.2968,79.38,6.35
kostroma,90,10800,1620053480,94,57.7708,40.9344,53.6,4.47
tocopilla,7,-14400,1620053480,71,-22.092,-70.1979,70.41,9.33
puerto el triunfo,0,-21600,1620053481,89,13.2833,-88.55,82.4,3.31
atasu,94,21600,1620053481,23,48.6814,71.6433,60.67,9.71
grand gaube,4,14400,1620053482,85,-20.0064,57.6608,79,3
moron,100,-10800,1620053487,82,-34.6534,-58.6198,73.99,3
tanda,84,19800,1620053487,22,26.55,82.65,93.24,3.58
ulaangom,47,25200,1620053488,34,49.9811,92.0667,43.56,3.04
menongue,100,3600,1620053488,61,-14.6585,17.691,72.12,6.53
biak,,,,,,,,
kalyazin,99,10800,1620053489,91,57.2403,37.8433,55.47,13.22
vagur,96,3600,1620053489,81,61.4732,-6.8119,38.8,27.47
mamallapuram,40,19800,1620053490,74,12.6264,80.1722,87.01,6.91
skalistyy,,,,,,,,
chapais,20,-14400,1620053490,64,49.7834,-74.8492,33.8,2.3
uppsala,90,7200,1620053491,43,60,17.75,54,5.75
guiglo,100,0,1620053491,51,6.5456,-7.4966,89.92,2.46
grand-santi,88,-10800,1620053492,76,4.25,-54.3833,82.33,3.44
urusha,100,32400,1620053492,68,54.05,122.9,43.63,13.73
nikolayevsk-na-amure,42,36000,1620053493,97,53.1406,140.73,25.32,3.83
mongo,91,3600,1620053493,8,12.1844,18.693,104.77,9.42
melfi,0,7200,1620053494,49,40.9965,15.6514,68,5.75
port-gentil,75,3600,1620053494,83,-0.7193,8.7815,82.4,13.8
kenai,1,-28800,1620053495,80,60.5544,-151.2583,37.99,8.05
marystown,74,-9000,1620053495,72,47.1666,-55.1483,40.82,27.36
pljevlja,90,7200,1620053495,71,43.3333,19.3333,50,5.75
acworth,90,-14400,1620053496,94,34.0659,-84.6769,66.99,8.72
kintinku,98,10800,1620053496,72,-5.8833,35.2333,75.13,4.74
ajdabiya,46,7200,1620053497,9,30.7554,20.2263,103.57,6.04
valer,75,7200,1620053497,81,60.6785,11.8331,44.01,6.91
benguela,100,3600,1620053497,68,-12.5763,13.4055,84.45,11.18
trat,99,25200,1620053498,99,12.5,102.5,84.99,1.32
mattru,,,,,,,,
colesberg,0,7200,1620053498,27,-30.72,25.0972,66.81,8.86
rajpipla,29,19800,1620053499,31,21.8667,73.5,95,2.3
marcona,,,,,,,,
nuuk,20,-7200,1620053500,40,64.1835,-51.7216,48.2,8.05
vredendal,100,7200,1620053500,28,-31.6683,18.5012,77.72,9.33
tiznit,72,0,1620053296,51,29.5833,-9.5,67.86,12.71
viedma,74,-10800,1620053428,32,-40.8135,-62.9967,62.55,15.3
guilin,90,28800,1620053501,94,25.2819,110.2864,75.2,8.95
fengxian,100,28800,1620053501,96,34.7039,116.5872,60.15,4.85
zermatt,0,7200,1620053502,68,46.0213,7.7491,62.6,6.91
guozhen,75,28800,1620053502,39,34.3659,107.359,62.49,9.04
kotel,75,10800,1620053502,38,42.8833,26.45,75.2,13.8
goderich,100,-14400,1620053503,72,43.7501,-81.7165,59,8.05
yokadouma,90,3600,1620053503,55,3.5167,15.05,84.22,5.12
loandjili,40,3600,1620053504,84,-4.7561,11.8578,84.2,10.36
port macquarie,40,36000,1620053281,100,-31.4333,152.9167,57,5.86
bud,100,-14400,1620053504,99,39.447,-86.1758,63,7.67
harper,100,0,1620053504,72,4.375,-7.7169,84.69,8.97
salinas,90,-25200,1620053241,87,36.6777,-121.6555,53.6,1.54
khasan,,,,,,,,
rietavas,0,10800,1620053505,65,55.7194,21.9311,44.6,8.05
kaitangata,,,,,,,,
toamasina,75,10800,1620053506,83,-18.1667,49.3833,80.6,5.75
ewa beach,20,-36000,1620053355,68,21.3156,-158.0072,73.4,8.05
gorgopi,,,,,,,,
mackenzie,90,-25200,1620053506,87,55.2999,-123.1698,35.6,3.44
monrovia,75,0,1620053507,66,6.3005,-10.7969,91.4,10.36
halalo,,,,,,,,
seoul,0,32400,1620053508,58,37.5683,126.9778,53.6,3.44
dubrajpur,90,19800,1620053508,94,23.8,87.3833,77,5.75
rocha,64,-10800,1620053513,52,-34.4833,-54.3333,77.09,12.71
